<?xml version='1.0' encoding='UTF-8'?>
<kml xmlns='http://earth.google.com/kml/2.1'>
<Document>
   <name>results.csv.kml</name>
   <Placemark>
       <name>cop_spotter</name>
       <description>#alarm Prio: 1 Letsel Nieuwe Hoogstraat Amsterdam - Nieuwe Hoogstraat 20, 1011 HG Amsterdam, Netherlands</description>
       <Point>
           <coordinates>52.3707074,4.8998556,52.3707074</coordinates>
       </Point>
   </Placemark>
   <Placemark>
       <name>m_spitz</name>
       <description>The Bunny Gang #stickers #slaps @ Amsterdam Canal https://t.co/t2ttzRx00z</description>
       <Point>
           <coordinates>52.3650208,4.89223,52.3650208</coordinates>
       </Point>
   </Placemark>
   <Placemark>
       <name>barbarapeixe</name>
       <description>" ? preciso enxergar al?m do que se v?..." #goodmorningworld #amsterdam #iamsterdam? https://t.co/aDIiVOUDTW</description>
       <Point>
           <coordinates>52.37292305,4.89367444,52.37292305</coordinates>
       </Point>
   </Placemark>
   <Placemark>
       <name>p2000amsterdam</name>
       <description>A1 13115 Rit 8719 Amsterdam Nieuwe Hoogstraat Sint Antoniesbreestraat https://t.co/0MlngkNVAq #p2000</description>
       <Point>
           <coordinates>52.3711266,4.9005414,52.3711266</coordinates>
       </Point>
   </Placemark>
   <Placemark>
       <name>p2000amsterdam</name>
       <description>Prio: 1 Letsel Nieuwe Hoogstraat Amsterdam https://t.co/HqyoqPMzzD #p2000</description>
       <Point>
           <coordinates>52.3708079,4.8994357,52.3708079</coordinates>
       </Point>
   </Placemark>
   <Placemark>
       <name>112alarm</name>
       <description>#AMSTERDAM #AML | Prio: 1 Letsel Nieuwe Hoogstraat Amsterdam | https://t.co/EzPV8a4S2D</description>
       <Point>
           <coordinates>52.37081,4.89942,52.37081</coordinates>
       </Point>
   </Placemark>
   <Placemark>
       <name>aysegulAVS</name>
       <description>I'm at Starbucks, Amsterdam, The Netherlands https://t.co/CdlNjfW58q</description>
       <Point>
           <coordinates>52.36688543,4.89412862,52.36688543</coordinates>
       </Point>
   </Placemark>
   <Placemark>
       <name>p2000amsterdam</name>
       <description>A1 13101 Rit 8710 Amsterdam Vijzelstraat 113 Albert Heijn https://t.co/jxwc99xv1A #p2000</description>
       <Point>
           <coordinates>52.3660689,4.8935984,52.3660689</coordinates>
       </Point>
   </Placemark>
   <Placemark>
       <name>FilterCoffeeAms</name>
       <description>Met wie kom jij dit weekend koffiedrinken? #filteramsterdam #bringafriend #coffeelovers? https://t.co/X93s2yySeV</description>
       <Point>
           <coordinates>52.369751,4.9068298,52.369751</coordinates>
       </Point>
   </Placemark>
   <Placemark>
       <name>LamaAlZamil_</name>
       <description>I'm at Grand Caf? l'Opera in Amsterdam, Noord-Holland https://t.co/NnEehjR1Hn</description>
       <Point>
           <coordinates>52.36645476,4.89742935,52.36645476</coordinates>
       </Point>
   </Placemark>
   <Placemark>
       <name>davidnotte</name>
       <description>Flat whites for the team ???
#tgif #coffee #amsterdam #officelife @ Frederix Micro Roasters https://t.co/iqtGNXaNLQ</description>
       <Point>
           <coordinates>52.361412,4.9005914,52.361412</coordinates>
       </Point>
   </Placemark>
   <Placemark>
       <name>HortusAmsterdam</name>
       <description>Flowering in our desert greenhouse at this moment: Pelargonium lobatum. A South African plant.? https://t.co/YWON1NPS4G</description>
       <Point>
           <coordinates>52.3672066,4.9083505,52.3672066</coordinates>
       </Point>
   </Placemark>
   <Placemark>
       <name>cop_spotter</name>
       <description>#alarm 4210 - Oudezijds Achterburgwal 1921, 1012 DX Amsterdam, Netherlands</description>
       <Point>
           <coordinates>52.3702157,4.8951679,52.3702157</coordinates>
       </Point>
   </Placemark>
   <Placemark>
       <name>DeDanceAdvocaat</name>
       <description>Nieuw Skype-adres: "spetit.devos"! https://t.co/rdkVr16nuu</description>
       <Point>
           <coordinates>52.3733862,4.8940639,52.3733862</coordinates>
       </Point>
   </Placemark>
   <Placemark>
       <name>artofcolors</name>
       <description>Fotoshoot voor Another Academy. Foto by Lisa de Wolf Model van DeBoekers Styling by Christine? https://t.co/0oXd7POBJi</description>
       <Point>
           <coordinates>52.36123404,4.89715713,52.36123404</coordinates>
       </Point>
   </Placemark>
   <Placemark>
       <name>artofcolors</name>
       <description>Fotoshoot voor Another Academy. Foto by Lisa de Wolf Model van DeBoekers Styling by Christine? https://t.co/5HdDKSD4Tb</description>
       <Point>
           <coordinates>52.36123404,4.89715713,52.36123404</coordinates>
       </Point>
   </Placemark>
   <Placemark>
       <name>artofcolors</name>
       <description>Fotoshoot voor Another Academy. Foto by Lisa de Wolf Model van DeBoekers Styling by Christine? https://t.co/8gWr6g9G8M</description>
       <Point>
           <coordinates>52.36123404,4.89715713,52.36123404</coordinates>
       </Point>
   </Placemark>
   <Placemark>
       <name>artofcolors</name>
       <description>Fotoshoot voor Another Academy. Foto by Lisa de Wolf Model van DeBoekers Styling by Christine? https://t.co/WXTuLJqk7e</description>
       <Point>
           <coordinates>52.36123404,4.89715713,52.36123404</coordinates>
       </Point>
   </Placemark>
   <Placemark>
       <name>mjsteffens</name>
       <description>#voipmigration (@ WeWork Metropool) https://t.co/UgKtxMpAba</description>
       <Point>
           <coordinates>52.36467116,4.90611241,52.36467116</coordinates>
       </Point>
   </Placemark>
   <Placemark>
       <name>aalvaroo</name>
       <description>Bye bye, Amsterdam. It's always a pleasure??? @ Red Light District, Amsterdam https://t.co/xdgomhdiLM</description>
       <Point>
           <coordinates>52.3739,4.89717,52.3739</coordinates>
       </Point>
   </Placemark>
   <Placemark>
       <name>_R_e_i_n_i_e_r_</name>
       <description>Don't ever start taking for granted the beauty of the environment you live in. 

This is 'just? https://t.co/YOeBeQaln4</description>
       <Point>
           <coordinates>52.3749209,4.90064809,52.3749209</coordinates>
       </Point>
   </Placemark>
   <Placemark>
       <name>Latusein</name>
       <description>I'm at Amsterdam - @iamsterdam in Amsterdam, Noord-Holland https://t.co/Ev4UU7Xeyj</description>
       <Point>
           <coordinates>52.37234818,4.90048322,52.37234818</coordinates>
       </Point>
   </Placemark>
   <Placemark>
       <name>PhotoSchedule</name>
       <description>Good morning #Amsterdam! Sun will rise in 30 minutes (local time 08:36, UTC 07:36) #Sunrise #Photo #Photography [22.01.2016]</description>
       <Point>
           <coordinates>52.36667,4.9,52.36667</coordinates>
       </Point>
   </Placemark>
   <Placemark>
       <name>zape2014</name>
       <description>Happy Friday #amsterdam #Uberlandia #firstweek @ Amsterdam Canal-City Centre https://t.co/MOkKvUN6dE</description>
       <Point>
           <coordinates>52.36596395,4.89310671,52.36596395</coordinates>
       </Point>
   </Placemark>
   <Placemark>
       <name>rpwormgoor</name>
       <description>Koffie en croissantjes! #vakantiemodus (at @QuartierPutain in Amsterdam, Noord-Holland) https://t.co/o3u8Ft6PyO</description>
       <Point>
           <coordinates>52.374656,4.89862561,52.374656</coordinates>
       </Point>
   </Placemark>
   <Placemark>
       <name>sharonLfox1</name>
       <description>#sightseeing #Amsterdam (@ NH Carlton in Amsterdam, Netherlands) https://t.co/BHmLj3uDpb</description>
       <Point>
           <coordinates>52.36632701,4.89297688,52.36632701</coordinates>
       </Point>
   </Placemark>
   <Placemark>
       <name>tmj_net_jobs</name>
       <description>Supply Chain Planner - Starbucks: (#Amsterdam, Noord-Holland) https://t.co/t4RU6Tv6Ax #SupplyChain #Veterans #Job #Jobs #Hiring #CareerArc</description>
       <Point>
           <coordinates>52.3702157,4.8951679,52.3702157</coordinates>
       </Point>
   </Placemark>
   <Placemark>
       <name>Laauw_official</name>
       <description>Goodmorning people!! #laauw #amsterdam #newday #gm #morning #cold #winter #style #swag #fashion? https://t.co/HGyN5d540b</description>
       <Point>
           <coordinates>52.3653107,4.9025402,52.3653107</coordinates>
       </Point>
   </Placemark>
   <Placemark>
       <name>tmj_net_art</name>
       <description>We're #hiring! Click to apply: Project Designer - https://t.co/ALVVUH3hxT #Art #Amsterdam, Noord-Holland #Veterans #Job #Jobs #CareerArc</description>
       <Point>
           <coordinates>52.3702157,4.8951679,52.3702157</coordinates>
       </Point>
   </Placemark>
   <Placemark>
       <name>tmj_net_cler</name>
       <description>See our latest #Amsterdam, Noord-Holland #job and click to apply: Accounts Payable Specialist - https://t.co/gRaNUZ5SI8 #Clerical #Veterans</description>
       <Point>
           <coordinates>52.3702157,4.8951679,52.3702157</coordinates>
       </Point>
   </Placemark>
   <Placemark>
       <name>nikolas_5</name>
       <description>Like a boss ? #madametussauds #amsterdam #obama @ Madame Tussauds? https://t.co/I7hHcGYn02</description>
       <Point>
           <coordinates>52.37295085,4.89328739,52.37295085</coordinates>
       </Point>
   </Placemark>
   <Placemark>
       <name>nikolas_5</name>
       <description>Like a boss ? #madametussauds #amsterdam #obama @ Madame Tussauds? https://t.co/I7hHcGYn02</description>
       <Point>
           <coordinates>52.37295085,4.89328739,52.37295085</coordinates>
       </Point>
   </Placemark>
   <Placemark>
       <name>StyleSpyGirl</name>
       <description>Made it! Ready to spend the next few days exploring Amsterdam. ??? #StyleSpyGirlOnTheGo? https://t.co/fRhNcV24ir</description>
       <Point>
           <coordinates>52.3731,4.8922,52.3731</coordinates>
       </Point>
   </Placemark>
   <Placemark>
       <name>shantinakm</name>
       <description>Amsterdam is a dream ?</description>
       <Point>
           <coordinates>52.37780519,4.89678226,52.37780519</coordinates>
       </Point>
   </Placemark>
   <Placemark>
       <name>gatodelahoz</name>
       <description>#TBT #nederlands2013 #amsterdam #2013memories #2013 #netherlands @ Amsterdam Centraal railway? https://t.co/Owp6Pn12Qw</description>
       <Point>
           <coordinates>52.37833333,4.9,52.37833333</coordinates>
       </Point>
   </Placemark>
   <Placemark>
       <name>ali_noorani_teh</name>
       <description>Foggy morning in Amsterdam  (November) @ Amsterdam Centraal railway station https://t.co/DXCG7CHWsf</description>
       <Point>
           <coordinates>52.37833333,4.9,52.37833333</coordinates>
       </Point>
   </Placemark>
   <Placemark>
       <name>fbsdv</name>
       <description>#amsterdam #iloveamsterdam #iloveamsterdam?? #iamsterdam #holland #netherlands #amsterdamcity? https://t.co/rRCPbYlCXG</description>
       <Point>
           <coordinates>52.37969722,4.89013055,52.37969722</coordinates>
       </Point>
   </Placemark>
   <Placemark>
       <name>jmo11</name>
       <description>Boats n' bros.

Amsterdam - August, 2015 @ Amsterdam Canals https://t.co/A3bQXRhcUz</description>
       <Point>
           <coordinates>52.37707559,4.89807167,52.37707559</coordinates>
       </Point>
   </Placemark>
   <Placemark>
       <name>jmo11</name>
       <description>Canal cruise.

Amsterdam - August, 2015 @ Amsterdam Canals https://t.co/AROHxbtHOh</description>
       <Point>
           <coordinates>52.37707559,4.89807167,52.37707559</coordinates>
       </Point>
   </Placemark>
   <Placemark>
       <name>ShalinisWorld</name>
       <description>Sometimes you wake up at just the right time to catch the magic and stillness of the night. So? https://t.co/fBPKHn2dJT</description>
       <Point>
           <coordinates>52.3731,4.8922,52.3731</coordinates>
       </Point>
   </Placemark>
   <Placemark>
       <name>ReneOct</name>
       <description>Thks for the #suiteroom @finrusli ? Thks hotelkrasnapolsky for decorating the room with rose? https://t.co/omWPVHmrIt</description>
       <Point>
           <coordinates>52.3727112,4.8943701,52.3727112</coordinates>
       </Point>
   </Placemark>
   <Placemark>
       <name>p2000amsterdam</name>
       <description>A2 13105 Rit 8611 Amsterdam Weteringcircuit https://t.co/1TnofSXuXZ #p2000</description>
       <Point>
           <coordinates>52.3738007,4.8909347,52.3738007</coordinates>
       </Point>
   </Placemark>
   <Placemark>
       <name>carabaopower</name>
       <description>'Syndics of the Drapers' Guild' by Rembrandt, 1662, Rijksmuseum. 

In here the works of? https://t.co/6xFBgGpGCq</description>
       <Point>
           <coordinates>52.3731,4.8922,52.3731</coordinates>
       </Point>
   </Placemark>
   <Placemark>
       <name>damianpiasek</name>
       <description>I so miss you summer #amsterdam ? vsco HB1 #vsco #vscocam ??? @ Amsterdam, Netherlands https://t.co/4l8lnCZr4q</description>
       <Point>
           <coordinates>52.3731,4.8922,52.3731</coordinates>
       </Point>
   </Placemark>
   <Placemark>
       <name>p2000amsterdam</name>
       <description>A1 13119 Rit 8610 Amsterdam Nieuwezijds Voorburgwal 132 Hotel Utopia https://t.co/vFFRUEfgK3 #p2000</description>
       <Point>
           <coordinates>52.377325,4.8955919,52.377325</coordinates>
       </Point>
   </Placemark>
   <Placemark>
       <name>DJMikeMendoza</name>
       <description>"Oh Hi, I go by the name of Michael. I'm a deejay of profession. I love my job and the people? https://t.co/eQFFiOyd1z</description>
       <Point>
           <coordinates>52.3661194,4.8991699,52.3661194</coordinates>
       </Point>
   </Placemark>
   <Placemark>
       <name>mavic_auditor</name>
       <description>?Blank walls are a shared canvas and we're all artists.? Carla H. Krueger

???

#amsterdam? https://t.co/BVQNxdDVt3</description>
       <Point>
           <coordinates>52.3731,4.8922,52.3731</coordinates>
       </Point>
   </Placemark>
   <Placemark>
       <name>henriquetaipas</name>
       <description>Videos virais s?o perfeitos para marcas e organiza??es, pois geram de forma org?nica grande? https://t.co/bLGYeFchxl</description>
       <Point>
           <coordinates>52.3731,4.8922,52.3731</coordinates>
       </Point>
   </Placemark>
   <Placemark>
       <name>shiko_m</name>
       <description>Fast track 
#travel #Amsterdam #Schipol @ Schipol Airport Amsterdam https://t.co/lhZyFVCF43</description>
       <Point>
           <coordinates>52.3731,4.8922,52.3731</coordinates>
       </Point>
   </Placemark>
   <Placemark>
       <name>shiko_m</name>
       <description>Fast tracking @ Schipol Airport Amsterdam https://t.co/rOr2dVFy6h</description>
       <Point>
           <coordinates>52.3731,4.8922,52.3731</coordinates>
       </Point>
   </Placemark>
   <Placemark>
       <name>Map_Game</name>
       <description>Where is Amsterdam on the map? Play the game at https://t.co/YtxkBEoBt2 #Amsterdam</description>
       <Point>
           <coordinates>52.3731,4.89222,52.3731</coordinates>
       </Point>
   </Placemark>
   <Placemark>
       <name>women_ze</name>
       <description>Work with love ?????? (@ Red Light District / De Wallen in Amsterdam, Noord-Holland) https://t.co/10WLW6WBtg https://t.co/wfOPqmIu3I</description>
       <Point>
           <coordinates>52.3736604,4.89786386,52.3736604</coordinates>
       </Point>
   </Placemark>
   <Placemark>
       <name>bmortonn</name>
       <description>Throwback to summer, I miss laying out with Kelsie's thirsty? https://t.co/FlY4983zZc</description>
       <Point>
           <coordinates>52.3720703,4.8852501,52.3720703</coordinates>
       </Point>
   </Placemark>
   <Placemark>
       <name>TanaGimenez</name>
       <description>[Kaguabomba]
Sorry me convenci? esta @ Amsterdam, Netherlands https://t.co/UXTGttdxRC</description>
       <Point>
           <coordinates>52.3731,4.8922,52.3731</coordinates>
       </Point>
   </Placemark>
   <Placemark>
       <name>p2000amsterdam</name>
       <description>A1 13115 Rit 8586 Amsterdam Utrechtsestraat Prinsengracht https://t.co/qyJIKk4jwR #p2000</description>
       <Point>
           <coordinates>52.378931,4.8872896,52.378931</coordinates>
       </Point>
   </Placemark>
   <Placemark>
       <name>ventura17_3</name>
       <description>"?s vezes n?o olhar para tr?s, ? o melhor caminho para atingir o sucesso." ?? #reflexao? https://t.co/XD7OvlUPxu</description>
       <Point>
           <coordinates>52.3731,4.8922,52.3731</coordinates>
       </Point>
   </Placemark>
   <Placemark>
       <name>p2000amsterdam</name>
       <description>A1 13118 Rit 8572 Amsterdam Rusland 2 d https://t.co/XdJdlkzAa0 #p2000</description>
       <Point>
           <coordinates>52.369939,4.8967747,52.369939</coordinates>
       </Point>
   </Placemark>
   <Placemark>
       <name>p2000amsterdam</name>
       <description>A1 13118 Rit 8572 Amsterdam Rusland 2 d https://t.co/XdJdlkzAa0 #p2000</description>
       <Point>
           <coordinates>52.369939,4.8967747,52.369939</coordinates>
       </Point>
   </Placemark>
   <Placemark>
       <name>st_guitars</name>
       <description>Checking guitars before jam #djangoamsterdam #gypsyjazz #luthier #stguitars #manoushe @ Kapitein? https://t.co/hkGalZKywu</description>
       <Point>
           <coordinates>52.3695602,4.8937502,52.3695602</coordinates>
       </Point>
   </Placemark>
   <Placemark>
       <name>Map_Game</name>
       <description>Travelling to Amsterdam or just twittering about Amsterdam? https://t.co/YtxkBEoBt2 #Amsterdam</description>
       <Point>
           <coordinates>52.3731,4.89222,52.3731</coordinates>
       </Point>
   </Placemark>
   <Placemark>
       <name>_borntohula</name>
       <description>#tbt to the pasty Irish fellas wrecking Amsterdam @ The Black Tiger Bar Amsterdam https://t.co/0uFYCm7Jh5</description>
       <Point>
           <coordinates>52.3739128,4.8998551,52.3739128</coordinates>
       </Point>
   </Placemark>
   <Placemark>
       <name>COVEREDBYLAILA_</name>
       <description>#200views #positivevibes #love #hello #cover #coveredbylaila
   ??? @ Amsterdam, Netherlands https://t.co/kXDFzUE5G5</description>
       <Point>
           <coordinates>52.3731,4.8922,52.3731</coordinates>
       </Point>
   </Placemark>
   <Placemark>
       <name>PositiveLuke</name>
       <description>My god this cat is so stoned. Totally comatose. #amsterdam @ 420 Caf? https://t.co/5YFlX3EEze</description>
       <Point>
           <coordinates>52.375782,4.8959384,52.375782</coordinates>
       </Point>
   </Placemark>
   <Placemark>
       <name>justRosez</name>
       <description>Weer een voor op de koelkast... @ A L'Elephant du Congo https://t.co/ETTDksfdOT</description>
       <Point>
           <coordinates>52.36649,4.89068,52.36649</coordinates>
       </Point>
   </Placemark>
   <Placemark>
       <name>GomidesLukas</name>
       <description>Just posted a photo @ Rembrandt Plein Amsterdam https://t.co/wWEDdMu04C</description>
       <Point>
           <coordinates>52.36617933,4.89602315,52.36617933</coordinates>
       </Point>
   </Placemark>
   <Placemark>
       <name>Felix_Odiott</name>
       <description>I'm at SoHo in Amsterdam, Noord-Holland https://t.co/QAlHvlfOhA</description>
       <Point>
           <coordinates>52.36634994,4.89104033,52.36634994</coordinates>
       </Point>
   </Placemark>
   <Placemark>
       <name>Map_Game</name>
       <description>Can you find Amsterdam on the map? Just try it at https://t.co/YtxkBEoBt2 #Amsterdam</description>
       <Point>
           <coordinates>52.3731,4.89222,52.3731</coordinates>
       </Point>
   </Placemark>
   <Placemark>
       <name>p2000amsterdam</name>
       <description>A2 13105 Rit 8563 Amsterdam Johanneerhulststraat 123 https://t.co/rELP63NlNG #p2000</description>
       <Point>
           <coordinates>52.3738007,4.8909347,52.3738007</coordinates>
       </Point>
   </Placemark>
   <Placemark>
       <name>NetworkTown_</name>
       <description>Just posted a photo @ Amsterdam, Netherlands https://t.co/6lckThCGEt</description>
       <Point>
           <coordinates>52.3731,4.8922,52.3731</coordinates>
       </Point>
   </Placemark>
   <Placemark>
       <name>p2000amsterdam</name>
       <description>A1 13119 Rit 8561 Amsterdam Damrak 51 Dana https://t.co/eFqz2EPuce #p2000</description>
       <Point>
           <coordinates>52.3765604,4.897948,52.3765604</coordinates>
       </Point>
   </Placemark>
   <Placemark>
       <name>RexRico</name>
       <description>Big shout out to grandhoteldowntown for a friendly, professional, and excellent stay in? https://t.co/Tm6SECVKTl</description>
       <Point>
           <coordinates>52.3731,4.8922,52.3731</coordinates>
       </Point>
   </Placemark>
   <Placemark>
       <name>p2000amsterdam</name>
       <description>A1 13176 Rit 8560 Amsterdam Damrak 51 Dana https://t.co/z17Toc00J6 #p2000</description>
       <Point>
           <coordinates>52.3765604,4.897948,52.3765604</coordinates>
       </Point>
   </Placemark>
   <Placemark>
       <name>KarlMasters</name>
       <description>Haciendo una visita a una muy buena amiga. @llj_ridderstaat #vakantie #mensen #jeviel @ de? https://t.co/ofXk3ddxVj</description>
       <Point>
           <coordinates>52.3732414,4.8938599,52.3732414</coordinates>
       </Point>
   </Placemark>
   <Placemark>
       <name>SergioChimeno</name>
       <description>Al final, de vernos las caras demasiado nos hemos cogido cari?o y? https://t.co/zaqbsyLPTt</description>
       <Point>
           <coordinates>52.3731,4.8922,52.3731</coordinates>
       </Point>
   </Placemark>
   <Placemark>
       <name>justRosez</name>
       <description>@rawadvertisers new years fissa. Mooie plannen, mooie mensen, mooie dingen. ? @ A L'Elephant du? https://t.co/mmwSPnm2rx</description>
       <Point>
           <coordinates>52.36649,4.89068,52.36649</coordinates>
       </Point>
   </Placemark>
   <Placemark>
       <name>dialoguscompany</name>
       <description>Een historisch gebouw dat dateert van 1488, huisvest in de Waag.
A historical building from? https://t.co/7HPA3Oo7Gd</description>
       <Point>
           <coordinates>52.37267238,4.9003881,52.37267238</coordinates>
       </Point>
   </Placemark>
   <Placemark>
       <name>CalvinKaiKu</name>
       <description>The romantic canals of Amsterdam. @ Amsterdam Canals https://t.co/JBjqU1TMsT</description>
       <Point>
           <coordinates>52.37707559,4.89807167,52.37707559</coordinates>
       </Point>
   </Placemark>
   <Placemark>
       <name>KingAzour</name>
       <description>Soon enough...? #TBT #Amsterdam #TheNetherlands ?????? #TB? https://t.co/ZD4ZvX5kSM</description>
       <Point>
           <coordinates>52.3731,4.8922,52.3731</coordinates>
       </Point>
   </Placemark>
   <Placemark>
       <name>rickipy</name>
       <description>I'm at Coco?s Outback in Amsterdam, Noord-Holland https://t.co/bzUd0YyE4G</description>
       <Point>
           <coordinates>52.36555697,4.89579534,52.36555697</coordinates>
       </Point>
   </Placemark>
   <Placemark>
       <name>gulenyildirim</name>
       <description>#g?lersemd?nyag?ler ???? 
#her?eybendeba?larbendebiter??? @? https://t.co/rOTSOdxS3x</description>
       <Point>
           <coordinates>52.37707559,4.89807167,52.37707559</coordinates>
       </Point>
   </Placemark>
   <Placemark>
       <name>AraikGingnagel</name>
       <description>Inmiddels weet ik een hoop meer over haar beroep.</description>
       <Point>
           <coordinates>52.37716047,4.89499181,52.37716047</coordinates>
       </Point>
   </Placemark>
   <Placemark>
       <name>IZKALOTZIN</name>
       <description>Amsterdam visit #4 @ Amsterdam, Netherlands https://t.co/YpmU33WQeS</description>
       <Point>
           <coordinates>52.3731,4.8922,52.3731</coordinates>
       </Point>
   </Placemark>
   <Placemark>
       <name>markvdheijden</name>
       <description>"The greatest adventure is what lies ahead." - J.R.R. Tolkien. (This picture was taken by? https://t.co/zkfSuFykMi</description>
       <Point>
           <coordinates>52.3731,4.8922,52.3731</coordinates>
       </Point>
   </Placemark>
   <Placemark>
       <name>TrendsNederland</name>
       <description>#javhj16 is nu trending in Netherlands https://t.co/MxE9jII4QV</description>
       <Point>
           <coordinates>52.3738,4.89093,52.3738</coordinates>
       </Point>
   </Placemark>
   <Placemark>
       <name>kartenquizde</name>
       <description>Wo liegt Amsterdam? https://t.co/RqCSp3JI8C #Amsterdam #quiz</description>
       <Point>
           <coordinates>52.3738,4.89093,52.3738</coordinates>
       </Point>
   </Placemark>
   <Placemark>
       <name>Lauravazva</name>
       <description>me estaba rayando en que escribir aqu? pero en resumen que quiero volver ah? sea c?mo sea, que? https://t.co/pnpt5Qlfok</description>
       <Point>
           <coordinates>52.36694444,4.89333333,52.36694444</coordinates>
       </Point>
   </Placemark>
   <Placemark>
       <name>ulgmer</name>
       <description>UlgMer (@ The Bulldog Coffeeshop in Amsterdam) https://t.co/RJzyacUnnS</description>
       <Point>
           <coordinates>52.37351782,4.89745361,52.37351782</coordinates>
       </Point>
   </Placemark>
   <Placemark>
       <name>classicbyte</name>
       <description>#CEMEC. lots of ideas! How to select them into a successful collaborative travelling exhibition? https://t.co/QHhzcdlKGS</description>
       <Point>
           <coordinates>52.370107,4.893545,52.370107</coordinates>
       </Point>
   </Placemark>
   <Placemark>
       <name>p2000amsterdam</name>
       <description>A1 13106 Rit 8545 Amsterdam Wethouder Ed. Polakstraat 46 https://t.co/TvB7VBiKPu #p2000</description>
       <Point>
           <coordinates>52.3738007,4.8909347,52.3738007</coordinates>
       </Point>
   </Placemark>
   <Placemark>
       <name>TrendsNederland</name>
       <description>'loeki' en 'aboutaleb' zijn nu trending in Netherlands https://t.co/MxE9jII4QV</description>
       <Point>
           <coordinates>52.3738,4.89093,52.3738</coordinates>
       </Point>
   </Placemark>
   <Placemark>
       <name>krizy_t</name>
       <description>#europe #netherlands #holland #amsterdam #canal #dutch #bikes #amsterdamcity #hollandroden? https://t.co/27bnretBCd</description>
       <Point>
           <coordinates>52.3731,4.8922,52.3731</coordinates>
       </Point>
   </Placemark>
   <Placemark>
       <name>SercanHaci</name>
       <description>I'm at Club Smokey in Amsterdam, Noord-Holland https://t.co/FcJbGhJy1H</description>
       <Point>
           <coordinates>52.36595583,4.89612608,52.36595583</coordinates>
       </Point>
   </Placemark>
   <Placemark>
       <name>TrendsNederland</name>
       <description>#demarathon is nu trending in Netherlands https://t.co/MxE9jII4QV</description>
       <Point>
           <coordinates>52.3738,4.89093,52.3738</coordinates>
       </Point>
   </Placemark>
   <Placemark>
       <name>TrendsNederland</name>
       <description>Lex Immers, @immerslex is nu trending in Netherlands https://t.co/MxE9jII4QV</description>
       <Point>
           <coordinates>52.3738,4.89093,52.3738</coordinates>
       </Point>
   </Placemark>
   <Placemark>
       <name>RNK83</name>
       <description>I'm at Lime in Amsterdam, Netherlands https://t.co/wKi6LhCr9m https://t.co/FI1ybTgvQ5</description>
       <Point>
           <coordinates>52.3739093,4.90018398,52.3739093</coordinates>
       </Point>
   </Placemark>
   <Placemark>
       <name>p2000amsterdam</name>
       <description>P 1 Oms Melding (+Inc,net: Reg.Inmeld+) Hotel Beursstraat , Beursstraat 7 Amsterdam [ ASN ] https://t.co/hqhzTqblPa #p2000</description>
       <Point>
           <coordinates>52.374608,4.8967715,52.374608</coordinates>
       </Point>
   </Placemark>
   <Placemark>
       <name>TrendsNederland</name>
       <description>Luke Hemmings, @luke5sos is nu trending in Netherlands https://t.co/MxE9jII4QV</description>
       <Point>
           <coordinates>52.3738,4.89093,52.3738</coordinates>
       </Point>
   </Placemark>
   <Placemark>
       <name>TrendsAmsterdam</name>
       <description>#theisland is nu trending in #Amsterdam https://t.co/ATkPHcEVQA</description>
       <Point>
           <coordinates>52.3738,4.89093,52.3738</coordinates>
       </Point>
   </Placemark>
   <Placemark>
       <name>netevenleuker</name>
       <description>@WJB219 mooi.</description>
       <Point>
           <coordinates>52.36268064,4.90157617,52.36268064</coordinates>
       </Point>
   </Placemark>
   <Placemark>
       <name>TrendsNederland</name>
       <description>#theisland is nu trending in Netherlands https://t.co/MxE9jII4QV</description>
       <Point>
           <coordinates>52.3738,4.89093,52.3738</coordinates>
       </Point>
   </Placemark>
   <Placemark>
       <name>kartenquizde</name>
       <description>Wo liegt Amsterdam? https://t.co/RqCSp3JI8C #Amsterdam #quiz</description>
       <Point>
           <coordinates>52.3738,4.89093,52.3738</coordinates>
       </Point>
   </Placemark>
   <Placemark>
       <name>nafiesa</name>
       <description>Dit moet je echt een keer doen! Aanrader!!! #EscapeRoom (at @SherlockedNl in Amsterdam) https://t.co/CtGdjoK1g5</description>
       <Point>
           <coordinates>52.37539607,4.89708927,52.37539607</coordinates>
       </Point>
   </Placemark>
   <Placemark>
       <name>emilyhinks</name>
       <description>What a week! And what a talented bunch, I have the coolest job ever #BssaCrew1 #DamFam? https://t.co/frwbOWcv4S</description>
       <Point>
           <coordinates>52.3731,4.8922,52.3731</coordinates>
       </Point>
   </Placemark>
   <Placemark>
       <name>ZeyneepAydin</name>
       <description>I'm at The Alley Amsterdam w/ @cansin_m @gulsahkarr https://t.co/uSueYGLiGe</description>
       <Point>
           <coordinates>52.37596732,4.89670823,52.37596732</coordinates>
       </Point>
   </Placemark>
   <Placemark>
       <name>fairybeki</name>
       <description>Very Hoppy, slightly sweet maltiness  full bodied traditional  ipa... (Festeroo) https://t.co/VWSXwFxJRf #photo</description>
       <Point>
           <coordinates>52.3719,4.89046,52.3719</coordinates>
       </Point>
   </Placemark>
   <Placemark>
       <name>p2000amsterdam</name>
       <description>A1 13106 Rit 8528 Amsterdam Kloveniersburgwal 4 A Green Place https://t.co/JfnO77oTfn #p2000</description>
       <Point>
           <coordinates>52.3717013,4.8996819,52.3717013</coordinates>
       </Point>
   </Placemark>
   <Placemark>
       <name>TrendsAmsterdam</name>
       <description>'rika' is nu trending in #Amsterdam https://t.co/ATkPHcEVQA</description>
       <Point>
           <coordinates>52.3738,4.89093,52.3738</coordinates>
       </Point>
   </Placemark>
   <Placemark>
       <name>sharonLfox1</name>
       <description>I'm at Il Primo Ristorante in Amsterdam, Noord-Holland https://t.co/bCBaDnQgfw</description>
       <Point>
           <coordinates>52.36684085,4.88941797,52.36684085</coordinates>
       </Point>
   </Placemark>
   <Placemark>
       <name>sharonLfox1</name>
       <description>#italian #food (@ Saturnino in Amsterdam, Netherlands) https://t.co/uEz0cl8V8Q</description>
       <Point>
           <coordinates>52.36679567,4.88933574,52.36679567</coordinates>
       </Point>
   </Placemark>
   <Placemark>
       <name>TrendsNederland</name>
       <description>Eelco Eerenberg, @eelcoeerenberg is nu trending in Netherlands https://t.co/MxE9jII4QV</description>
       <Point>
           <coordinates>52.3738,4.89093,52.3738</coordinates>
       </Point>
   </Placemark>
   <Placemark>
       <name>p2000amsterdam</name>
       <description>A1 13107 Rit 8527 Amsterdam Kloveniersburgwal 77 A th https://t.co/vM8VNP4HzN #p2000</description>
       <Point>
           <coordinates>52.3717013,4.8996819,52.3717013</coordinates>
       </Point>
   </Placemark>
</Document>
</kml>
